{"type": "FeatureCollection", "name": "Metro_L12", "features": [{"type": "Feature", "properties": {"SISTEMA": "STC Metro", "NOMBRE": "Tláhuac", "LINEA": "12", "EST": "01", "CVE_EST": "STC1201", "CVE_EOD17": "05037", "TIPO": "Terminal", "ALCALDIAS": "Tláhuac", "AÑO": 2012}, "geometry": {"type": "Point", "coordinates": [-99.0141983243777, 19.28602227729018]}}, {"type": "Feature", "properties": {"SISTEMA": "STC Metro", "NOMBRE": "Tlaltenco", "LINEA": "12", "EST": "02", "CVE_EST": "STC1202", "CVE_EOD17": "05038", "TIPO": "Intermedia", "ALCALDIAS": "Tláhuac", "AÑO": 2012}, "geometry": {"type": "Point", "coordinates": [-99.02403074663107, 19.294353379107935]}}, {"type": "Feature", "properties": {"SISTEMA": "STC Metro", "NOMBRE": "Zapotitlán", "LINEA": "12", "EST": "03", "CVE_EST": "STC1203", "CVE_EOD17": "05040", "TIPO": "Intermedia", "ALCALDIAS": "Tláhuac", "AÑO": 2012}, "geometry": {"type": "Point", "coordinates": [-99.03430689003962, 19.296655586515055]}}, {"type": "Feature", "properties": {"SISTEMA": "STC Metro", "NOMBRE": "Nopalera", "LINEA": "12", "EST": "04", "CVE_EST": "STC1204", "CVE_EOD17": "05031", "TIPO": "Intermedia", "ALCALDIAS": "Tláhuac", "AÑO": 2012}, "geometry": {"type": "Point", "coordinates": [-99.04599286885365, 19.29995730488926]}}, {"type": "Feature", "properties": {"SISTEMA": "STC Metro", "NOMBRE": "Olivos", "LINEA": "12", "EST": "05", "CVE_EST": "STC1205", "CVE_EOD17": "05032", "TIPO": "Intermedia", "ALCALDIAS": "Tláhuac", "AÑO": 2012}, "geometry": {"type": "Point", "coordinates": [-99.05951149501792, 19.304321996002184]}}, {"type": "Feature", "properties": {"SISTEMA": "STC Metro", "NOMBRE": "Tezonco", "LINEA": "12", "EST": "06", "CVE_EST": "STC1206", "CVE_EOD17": "05036", "TIPO": "Intermedia", "ALCALDIAS": "Iztapalapa", "AÑO": 2012}, "geometry": {"type": "Point", "coordinates": [-99.06527026370269, 19.30630882550969]}}, {"type": "Feature", "properties": {"SISTEMA": "STC Metro", "NOMBRE": "Periferico Oriente", "LINEA": "12", "EST": "07", "CVE_EST": "STC1207", "CVE_EOD17": "05034", "TIPO": "Intermedia", "ALCALDIAS": "Iztapalapa", "AÑO": 2012}, "geometry": {"type": "Point", "coordinates": [-99.07450575078416, 19.3176115684651]}}, {"type": "Feature", "properties": {"SISTEMA": "STC Metro", "NOMBRE": "Calle 11", "LINEA": "12", "EST": "08", "CVE_EST": "STC1208", "CVE_EOD17": "05022", "TIPO": "Intermedia", "ALCALDIAS": "Iztapalapa", "AÑO": 2012}, "geometry": {"type": "Point", "coordinates": [-99.08587286436709, 19.320471151871725]}}, {"type": "Feature", "properties": {"SISTEMA": "STC Metro", "NOMBRE": "Lomas Estrella", "LINEA": "12", "EST": "09", "CVE_EST": "STC1209", "CVE_EOD17": "05028", "TIPO": "Intermedia", "ALCALDIAS": "Iztapalapa", "AÑO": 2012}, "geometry": {"type": "Point", "coordinates": [-99.09575048151491, 19.32214885634406]}}, {"type": "Feature", "properties": {"SISTEMA": "STC Metro", "NOMBRE": "San Andres Tomatlán", "LINEA": "12", "EST": "10", "CVE_EST": "STC1210", "CVE_EOD17": "05035", "TIPO": "Intermedia", "ALCALDIAS": "Iztapalapa", "AÑO": 2012}, "geometry": {"type": "Point", "coordinates": [-99.1045158609058, 19.328145479520746]}}, {"type": "Feature", "properties": {"SISTEMA": "STC Metro", "NOMBRE": "Culhuacán", "LINEA": "12", "EST": "11", "CVE_EST": "STC1211", "CVE_EOD17": "05023", "TIPO": "Intermedia", "ALCALDIAS": "Iztapalapa", "AÑO": 2012}, "geometry": {"type": "Point", "coordinates": [-99.10895874517293, 19.33684561107958]}}, {"type": "Feature", "properties": {"SISTEMA": "STC Metro", "NOMBRE": "Atlalilco", "LINEA": "12", "EST": "12", "CVE_EST": "STC1212", "CVE_EOD17": "05021", "TIPO": "Transbordo", "ALCALDIAS": "Iztapalapa", "AÑO": 2012}, "geometry": {"type": "Point", "coordinates": [-99.10624316535984, 19.35275417281493]}}, {"type": "Feature", "properties": {"SISTEMA": "STC Metro", "NOMBRE": "Mexicaltzingo", "LINEA": "12", "EST": "13", "CVE_EST": "STC1213", "CVE_EOD17": "05029", "TIPO": "Intermedia", "ALCALDIAS": "Iztapalapa / Coyoacán", "AÑO": 2012}, "geometry": {"type": "Point", "coordinates": [-99.1231432322264, 19.357762536085847]}}, {"type": "Feature", "properties": {"SISTEMA": "STC Metro", "NOMBRE": "Ermita", "LINEA": "12", "EST": "14", "CVE_EST": "STC1214", "CVE_EOD17": "05025", "TIPO": "Transbordo", "ALCALDIAS": "Benito Juárez", "AÑO": 2012}, "geometry": {"type": "Point", "coordinates": [-99.14163136305437, 19.35982350302383]}}, {"type": "Feature", "properties": {"SISTEMA": "STC Metro", "NOMBRE": "Eje Central", "LINEA": "12", "EST": "15", "CVE_EST": "STC1215", "CVE_EOD17": "05024", "TIPO": "Intermedia", "ALCALDIAS": "Benito Juárez", "AÑO": 2012}, "geometry": {"type": "Point", "coordinates": [-99.15142336147862, 19.361341237938568]}}, {"type": "Feature", "properties": {"SISTEMA": "STC Metro", "NOMBRE": "Parque de los Venados", "LINEA": "12", "EST": "16", "CVE_EST": "STC1216", "CVE_EOD17": "05033", "TIPO": "Intermedia", "ALCALDIAS": "Benito Juárez", "AÑO": 2012}, "geometry": {"type": "Point", "coordinates": [-99.15871771897177, 19.370658834977448]}}, {"type": "Feature", "properties": {"SISTEMA": "STC Metro", "NOMBRE": "Zapata", "LINEA": "12", "EST": "17", "CVE_EST": "STC1217", "CVE_EOD17": "05039", "TIPO": "Transbordo", "ALCALDIAS": "Benito Juárez", "AÑO": 2012}, "geometry": {"type": "Point", "coordinates": [-99.165599315594, 19.370845301557008]}}, {"type": "Feature", "properties": {"SISTEMA": "STC Metro", "NOMBRE": "Hospital 20 de Noviembre", "LINEA": "12", "EST": "18", "CVE_EST": "STC1218", "CVE_EOD17": "05026", "TIPO": "Intermedia", "ALCALDIAS": "Benito Juárez", "AÑO": 2012}, "geometry": {"type": "Point", "coordinates": [-99.17088446276829, 19.37201337695184]}}, {"type": "Feature", "properties": {"SISTEMA": "STC Metro", "NOMBRE": "Insurgentes Sur", "LINEA": "12", "EST": "19", "CVE_EST": "STC1219", "CVE_EOD17": "05027", "TIPO": "Intermedia", "ALCALDIAS": "Benito Juárez", "AÑO": 2012}, "geometry": {"type": "Point", "coordinates": [-99.17825012925253, 19.373553470227098]}}, {"type": "Feature", "properties": {"SISTEMA": "STC Metro", "NOMBRE": "Mixcoac", "LINEA": "12", "EST": "20", "CVE_EST": "STC1220", "CVE_EOD17": "05030", "TIPO": "Terminal / Transbordo", "ALCALDIAS": "Benito Juárez", "AÑO": 2012}, "geometry": {"type": "Point", "coordinates": [-99.18673050109385, 19.37569882343627]}}]}